[
   {
      "Title": "Ap Lei Chau Wind Tower Park",
      "Region": "Southern, Hong Kong Island",
      "Information": "Total Track Length: 1200 m. Calories consumed: 50-60 Cal",
      "Coordinates": "latitute,longitude = (22.24472222,114.1525)"
   },
   {
      "Title": "Sun Yat Sen Memorial Park to Central Pier No.7",
      "Region": "Central and Western, Hong Kong Island",
      "Information": "Total Track Length: 2430 m. Calories consumed: 95-115 Cal",
      "Coordinates": "latitute,longitude = (22.290402,114.143783)"
   },
   {
      "Title": "Hong Kong Park",
      "Region": "Central and Western, Hong Kong Island",
      "Information": "Total Track Length: 1200 m. Calories consumed: 45-50 Cal",
      "Coordinates": "latitute,longitude = (22.27714,114.163813)"
   },
   {
      "Title": "Wan Chai Park",
      "Region": "Wan Chai, Hong Kong Island",
      "Information": "Total Track Length: 321 m. Calories consumed: 10-15 Cal",
      "Coordinates": "latitute,longitude = (22.275472,114.176008)"
   },
   {
      "Title": "Bowen Road",
      "Region": "Wan Chai, Hong Kong Island",
      "Information": "Total Track Length: 3000 m. Calories consumed: 155-185 Cal",
      "Coordinates": "latitute,longitude = (22.272853,114.166083)"
   },
   {
      "Title": "Quarry Bay Park",
      "Region": "Eastern, Hong Kong Island",
      "Information": "Total Track Length: 1300 m. Calories consumed: 50-60 Cal",
      "Coordinates": "latitute,longitude = (22.287855,114.222554)"
   },
   {
      "Title": "Lai Chi Kok Park",
      "Region": "Sham Shui Po, Kowloon",
      "Information": "Total Track Length: 1000 m. Calories consumed: 40-50 Cal",
      "Coordinates": "latitute,longitude = (22.33944444,114.13694444)"
   },
   {
      "Title": "Kowloon Park",
      "Region": "Yau Tsim Mong, Kowloon",
      "Information": "Total Track Length: 900 m. Calories consumed: 35-45 Cal",
      "Coordinates": "latitute,longitude = (22.301593,114.170116)"
   },
   {
      "Title": "Tsim Sha Tsui Promenade",
      "Region": "Yau Tsim Mong, Kowloon",
      "Information": "Total Track Length: 683 m. Calories consumed: 30-35 Cal",
      "Coordinates": "latitute,longitude = (22.293123,114.174814)"
   },
   {
      "Title": "Po Kong Village Road Park",
      "Region": "Wong Tai Sin, Kowloon",
      "Information": "Total Track Length: 650 m. Calories consumed: 25-30 Cal",
      "Coordinates": "latitute,longitude = (22.343673,114.204487)"
   },
   {
      "Title": "Ngau Chi Wan Park",
      "Region": "Wong Tai Sin, Kowloon",
      "Information": "Total Track Length: 290 m. Calories consumed: 10-15 Cal ",
      "Coordinates": "latitute,longitude = (22.337411,114.21406)"
   },
   {
      "Title": "Laguna Park",
      "Region": "Kwun Tong, Kowloon",
      "Information": "Total Track Length: 500 m. Calories consumed: 20-25 Cal",
      "Coordinates": "latitute,longitude = (22.308201,114.227894)"
   },
   {
      "Title": "Jordan Valley Park",
      "Region": "Kwun Tong, Kowloon",
      "Information": "Total Track Length: 856 m. Calories consumed: 35-40 Cal",
      "Coordinates": "latitute,longitude = (22.330161,114.221578)"
   },
   {
      "Title": "Kowloon Tsai Park",
      "Region": "Kowloon City, Kowloon",
      "Information": "Total Track Length: 800 m. Calories consumed: 30-40 Cal",
      "Coordinates": "latitute,longitude = (22.331287,114.18432)"
   },
   {
      "Title": "Kowloon Walled City Park \n& Carpenter Road Park",
      "Region": "Kowloon City, Kowloon",
      "Information": "Total Track Length: 1800 m. Calories consumed: 70-85 Cal",
      "Coordinates": "latitute,longitude = (22.330991,114.192113)"
   },
   {
      "Title": "Tai Po Waterfront Park",
      "Region": "Tai Po, New Territories",
      "Information": "Total Track Length: 517 m. Calories consumed: 20-25 Cal",
      "Coordinates": "latitute,longitude = (22.452218,114.179066)"
   },
   {
      "Title": "Mui Shue Hang Playground",
      "Region": "Tai Po, New Territories",
      "Information": "Total Track Length: 1600 m. Calories consumed: 65-75 Cal",
      "Coordinates": "latitute,longitude = (22.450841,114.156727)"
   },
   {
      "Title": "Sai Kung Promenade",
      "Region": "Sai Kung, New Territories",
      "Information": "Total Track Length: 1536 m. Calories consumed: 60-75 Cal",
      "Coordinates": "latitute,longitude = (22.382621,114.275111)"
   },
   {
      "Title": "Po Tsui Park",
      "Region": "Sai Kung, New Territories",
      "Information": "Total Track Length: 750 m. Calories consumed: 30-35 Cal",
      "Coordinates": "latitute,longitude = (22.324348,114.253436)"
   },
   {
      "Title": "Tseung Kwan O Waterfront Park & \nTseung Kwan O Promenade",
      "Region": "Sai Kung, New Territories",
      "Information": "Total Track Length: 1100 m. Calories consumed: 40-50 Cal",
      "Coordinates": "latitute,longitude = (22.302551,114.256391)"
   },
   {
      "Title": "Sha Tin Park",
      "Region": "Sha Tin Distict, New Territories",
      "Information": "Total Track Length: 1500 m. Calories consumed: 60-70 Cal",
      "Coordinates": "latitute,longitude = (22.380079,114.189881)"
   },
   {
      "Title": "Ma On Shan Park",
      "Region": "Sha Tin Distict, New Territories",
      "Information": "Total Track Length: 920 m. Calories consumed: 40-45 Cal",
      "Coordinates": "latitute,longitude = (22.427302,114.230445)"
   },
   {
      "Title": "Ma On Shan Promenade",
      "Region": "Sha Tin Distict, New Territories",
      "Information": "Total Track Length: 3223 m. Calories consumed: 130-150 Cal",
      "Coordinates": "latitute,longitude = (22.427023,114.233751)"
   },
   {
      "Title": "Tuen Mun Park, Wu Shan Riverside Park & \nWu Shan Recreation Playground",
      "Region": "Tuen Mun, New Territories",
      "Information": "Total Track Length: 2032 m. Calories consumed: 80-95 Cal",
      "Coordinates": "latitute,longitude = (22.393362,113.973031)"
   },
   {
      "Title": "Yuen Long Park",
      "Region": "Yuen Long, New Territories",
      "Information": "Total Track Length: 800 m. Calories consumed: 30-40 Cal",
      "Coordinates": "latitute,longitude = (22.441016,114.018452)"
   },
   {
      "Title": "Tin Shui Wai Park",
      "Region": "Yuen Long, New Territories",
      "Information": "Total Track Length: 800 m. Calories consumed: 30-40 Cal",
      "Coordinates": "latitute,longitude = (22.455809,114.001741)"
   },
   {
      "Title": "North DistrictS Park",
      "Region": "North, New Territories",
      "Information": "Total Track Length: 900 m. Calories consumed: 35-45 Cal",
      "Coordinates": "latitute,longitude = (22.499209,114.133649)"
   },
   {
      "Title": "Pak Fuk Tin Sum Playground",
      "Region": "North, New Territories",
      "Information": "Total Track Length: 1600 m. Calories consumed: 65-75 Cal",
      "Coordinates": "latitute,longitude = (22.489058,114.140366)"
   },
   {
      "Title": "Shing Mun Valley Park",
      "Region": "Tsuen Wan, New Territories",
      "Information": "Total Track Length: 800 m. Calories consumed: 30-40 Cal",
      "Coordinates": "latitute,longitude = (22.373344,114.124687)"
   },
   {
      "Title": "Tsuen Wan Park",
      "Region": "Tsuen Wan, New Territories",
      "Information": "Total Track Length: 2100 m. Calories consumed: 85-100 Cal",
      "Coordinates": "latitute,longitude = (22.364895,114.112451)"
   },
   {
      "Title": "Tsing Yi Park",
      "Region": "Kwai Tsing, New Territories",
      "Information": "Total Track Length: 1200 m. Calories consumed: 50-60 Cal",
      "Coordinates": "latitute,longitude = (22.356678,114.106163)"
   },
   {
      "Title": "Tsing Yi Promenade",
      "Region": "Kwai Tsing, New Territories",
      "Information": "Total Track Length: 1250 m. Calories consumed: 50-60 Cal",
      "Coordinates": "latitute,longitude = (22.363127,114.105045)"
   },
   {
      "Title": "Cheung Chau Sports Ground",
      "Region": "Islands, New Territories",
      "Information": "Total Track Length: 250 m. Calories consumed: 10-15 Cal",
      "Coordinates": "latitute,longitude = (22.206486,114.032803)"
   },
   {
      "Title": "Tung Chung North Park and Man Tung Road Park",
      "Region": "Islands, New Territories",
      "Information": "Total Track Length: 1200 m. Calories consumed: 50-60 Cal",
      "Coordinates": "latitute,longitude = (22.292443,113.950924)"
   }
]